lat,lng,hgt,yaw,pitch,roll,t
47.115271799999995,8.6707532,1040.634,2.42851971077338,-0.004413627162437761,-0.22751525012578483,1416580114.961364
47.115257799999995,8.6707758,1040.645,2.358392555545284,-0.0017346187392353052,-0.22586591682265528,1416580115.2478828
47.115244399999995,8.6707995,1040.602,2.3100725981859287,0.00072548683867657,-0.22391616193147315,1416580115.4404767
47.115232,8.6708243,1040.554,2.2584610643489116,0.0013594526218132508,-0.2229534039585504,1416580115.64116
47.1152205,8.6708501,1040.529,2.208674626815945,0.0016408813547654777,-0.22212387765254366,1416580115.8407116
47.1152097,8.6708768,1040.523,2.1598463765947984,0.003558660994580576,-0.22206004755026057,1416580116.0462022
47.115199499999996,8.6709043,1040.5040000000001,2.1083804013087737,0.005186861664870701,-0.22106148953980448,1416580116.2508059
47.1151902,8.6709326,1040.465,2.0584840538594023,0.004804396217094942,-0.22144864018953658,1416580116.44055
47.115181899999996,8.670961499999999,1040.423,2.01067863198343,0.004566008623599238,-0.2212563578466194,1416580116.6411998
47.1151744,8.6709909,1040.338,1.9606266929163867,0.0032393641868055933,-0.22196018692881644,1416580116.840711
47.115167899999996,8.671020799999999,1040.306,1.9118687799299952,0.002651291184508464,-0.22259615425615686,1416580117.0444248
47.115162299999994,8.6710507,1040.3,1.8639347356696356,0.0011549249017512864,-0.22344575390250904,1416580117.2459226
47.1151577,8.6710812,1040.287,1.8145982962417921,8.171095236098047e-05,-0.22128667533080926,1416580117.442589
47.1151542,8.6711121,1040.277,1.7665449102499975,-0.0015966271843323998,-0.22112110904333704,1416580117.6432528
47.1151518,8.671143299999999,1040.212,1.7204422283561296,-0.0038424321660266436,-0.22206237987646602,1416580117.8428543
47.1151504,8.6711744,1040.132,1.6714141084924858,-0.004599572921381245,-0.2229760415427929,1416580118.044338
47.1151499,8.6712053,1040.13,1.623178862054953,-0.006526466632871264,-0.22346303547845678,1416580118.2450678
47.1151504,8.6712361,1040.117,1.5764037084557758,-0.009007339276889681,-0.22310872203876422,1416580118.4426904
47.115152099999996,8.6712667,1040.001,1.527361005659557,-0.011101596005830272,-0.22477569048874413,1416580118.6424227
47.1151548,8.6712972,1039.974,1.477046286252528,-0.012558421131050546,-0.22618238975876312,1416580118.8411884
47.1151586,8.6713273,1040.008,1.4308480971967545,-0.014140452449733942,-0.22674228915591693,1416580119.0457127
47.1151633,8.671357,1039.945,1.3799170421110103,-0.015816694027659617,-0.22661051723180003,1416580119.2463272
47.1151688,8.6713866,1039.891,1.3353453172507683,-0.016193759641771832,-0.22674853498653955,1416580119.4409616
47.1151753,8.6714156,1039.836,1.2841675469887566,-0.013773683221398603,-0.2263669774053008,1416580119.642568
47.115182999999995,8.6714438,1039.792,1.236317548308076,-0.010826080616277878,-0.22646615004934945,1416580119.8411937
47.1152009,8.671498999999999,1039.646,1.1395267973615877,-0.002226058813602272,-0.22483509428370843,1416580120.249293
47.1152109,8.6715258,1039.669,1.0864648012539115,0.0019409677260748825,-0.22493232572956076,1416580120.4409273
47.1152333,8.6715765,1039.583,1.0016242838075153,0.00500315518282668,-0.22513690080861073,1416580120.7844284
47.1152459,8.6716003,1039.49,0.9528610990653211,0.004190518064277393,-0.22376632168932442,1416580120.9801838
47.1152592,8.671623,1039.397,0.9005283120360094,0.003429144858746902,-0.2219875782716841,1416580121.1877992
47.1152592,8.671623,1039.397,0.8389611859606438,0.0029693436636692994,-0.22064334572010447,1416580121.4154837
47.115288,8.6716654,1039.3220000000001,0.7912562793348217,0.0011567404500472112,-0.21988508076235985,1416580121.621938
47.1153032,8.671685,1039.259,0.7373491621581061,-0.0012593292611580154,-0.22053526500352993,1416580121.8185894
47.1153189,8.671703299999999,1039.209,0.6872121106311118,-0.002843079052069486,-0.22116334667233548,1416580122.016201
47.1153355,8.6717206,1039.1970000000001,0.6398035074940153,-0.004051767082366098,-0.2214124254334885,1416580122.2197945
47.1153525,8.671737199999999,1039.159,0.5951232674948524,-0.0050696347446155254,-0.22200242379768437,1416580122.4164598
47.1153701,8.6717522,1039.1390000000001,0.544449364119418,-0.005975105125526348,-0.2221516256182437,1416580122.6180897
47.1153882,8.671765599999999,1039.172,0.4958473578861542,-0.007550310128337401,-0.22199086688208772,1416580122.8166993
47.1154066,8.6717778,1039.1490000000001,0.44769367651767167,-0.008979756192041943,-0.2218674758847149,1416580123.0191958
47.1154252,8.6717887,1039.186,0.40307861545765833,-0.008179618858654925,-0.22178485804641696,1416580123.217916
47.1154441,8.671797999999999,1039.186,0.347598723188767,-0.010576179640320316,-0.2204793045566005,1416580123.4424257
47.1154631,8.6718061,1039.1580000000001,0.3006641373841536,-0.01137407466151652,-0.21934104583937003,1416580123.642172
47.1154825,8.6718124,1039.096,0.2558291043121576,-0.011824886375915167,-0.2182698952987,1416580123.8418007
47.115502299999996,8.671817299999999,1039.094,0.20719734681381796,-0.011493678077000968,-0.21701214974542324,1416580124.0424619
47.115541799999995,8.6718232,1039.116,0.11311145841117204,-0.013836656769810052,-0.21793844643619212,1416580124.4427087
47.1155617,8.671824299999999,1039.156,0.06355590539204382,-0.013536433128378489,-0.2174758840931614,1416580124.6423428
47.1155817,8.671823999999999,1039.172,0.015495087981364187,-0.012964224437875815,-0.21721549227756132,1416580124.8429513
47.1156015,8.671821999999999,1039.192,-0.03288203874774022,-0.012268122202748089,-0.21360807260095535,1416580125.0445762
47.115620899999996,8.6718187,1039.172,-0.08284101408431958,-0.011044979423334711,-0.21053822670815525,1416580125.243181
47.1156399,8.6718139,1039.146,-0.13187838798853657,-0.010664429662485153,-0.20790746447526554,1416580125.4438024
47.115658599999996,8.6718077,1039.161,-0.1816291218909172,-0.011360976523859367,-0.2060114016913788,1416580125.6444287
47.115677,8.6718004,1039.154,-0.23271758987080315,-0.011033982268958908,-0.20338931727272253,1416580125.843188
47.1156953,8.671791899999999,1039.258,-0.27950231663648717,-0.01030747929750575,-0.19791447234011209,1416580126.0458057
47.115713199999995,8.671782199999999,1039.267,-0.3299482822218027,-0.009797690478097199,-0.18965894554044116,1416580126.2445707
47.115713199999995,8.671782199999999,1039.267,-0.38227845928876947,-0.010130691505349843,-0.1828160576540474,1416580126.4432504
47.115713199999995,8.671782199999999,1039.267,-0.4309537875522334,-0.010254250269813303,-0.17990440511655828,1416580126.6457124
47.115765499999995,8.671744499999999,1039.307,-0.480374976597041,-0.011044101112253735,-0.1801962419921867,1416580126.8443673
47.1157816,8.6717294,1039.4270000000001,-0.5300581311984603,-0.012850169004593681,-0.18112908044194048,1416580127.0429878
47.115797199999996,8.6717137,1039.457,-0.5790417277909486,-0.015299265976704168,-0.18220918725312807,1416580127.2435691
47.115812399999996,8.6716971,1039.505,-0.6228359362671276,-0.01721527702734149,-0.18292246774046397,1416580127.4452393
47.1158272,8.6716796,1039.564,-0.6647557218528449,-0.018761252431417574,-0.1846128625964645,1416580127.6438262
47.1158411,8.671661,1039.609,-0.711147621943265,-0.017680914871512687,-0.1870508990900813,1416580127.8435538
47.115854399999996,8.6716413,1039.678,-0.7513778889933775,-0.014913366203917588,-0.18839624086734152,1416580128.0450118
47.1158668,8.671620599999999,1039.678,-0.7934171556918477,-0.01338338748199952,-0.19028867531927313,1416580128.2445517
47.1158784,8.6715992,1039.641,-0.8340422825918509,-0.011935225923933146,-0.19100562870313087,1416580128.443331
47.115889599999996,8.6715771,1039.597,-0.8761719109022091,-0.010939479486191228,-0.19019727841241474,1416580128.6588323
47.1159003,8.6715541,1039.645,-0.9193599245006867,-0.008953822249596843,-0.1899448992255944,1416580128.858484
47.1159101,8.671530299999999,1039.644,-0.9611131977212012,-0.006851381740675011,-0.1906941963640815,1416580129.060801
47.115919,8.6715062,1039.644,-1.0013427728382756,-0.004491387658488222,-0.19202360498451565,1416580129.258689
47.1159268,8.6714817,1039.676,-1.0439472098170663,-0.0030424940762778796,-0.1936723356072399,1416580129.4603505
47.115933999999996,8.671456599999999,1039.6390000000001,-1.0878447492631886,-7.546078417042246e-05,-0.194241512355861,1416580129.6629515
47.1159403,8.6714313,1039.662,-1.131885310496876,0.0004734566466835233,-0.19398384709463726,1416580129.8615825
47.115946,8.6714053,1039.612,-1.1746333024078695,0.0009473079185950972,-0.1927969920265074,1416580130.0592337
47.1159511,8.671378599999999,1039.58,-1.2196982353322832,0.003681103014759657,-0.19081800175518837,1416580130.2598581
47.115955299999996,8.6713515,1039.48,-1.2662111455270337,0.003812451284101792,-0.18735437110611283,1416580130.4655719
47.1159586,8.6713243,1039.469,-1.3085668830920505,0.004783368917056663,-0.18384747319591185,1416580130.6652985
47.1159611,8.6712972,1039.441,-1.3543761212264196,-0.0005987460604719441,-0.17899866449294688,1416580130.8601856
47.1159628,8.6712694,1039.332,-1.3988502273787689,-0.0032771021198167993,-0.1749265528941657,1416580131.0609293
47.1159635,8.6712414,1039.234,-1.440888644407304,-0.005358307292185005,-0.17574225660163711,1416580131.2606785
47.1159635,8.6712134,1039.209,-1.484562898649043,-0.009846842487412522,-0.1777572270746405,1416580131.4605649
47.1159628,8.6711855,1039.205,-1.527816758462987,-0.013851828537167377,-0.18018748664649992,1416580131.66033
47.1159612,8.671157299999999,1039.171,-1.5739818402245573,-0.016754316638704525,-0.18397322713532357,1416580131.8670554
47.115958899999995,8.6711292,1039.13,-1.6150845426157476,-0.016391147841835707,-0.1870823612375674,1416580132.060816
47.115955799999995,8.671101499999999,1039.103,-1.6582428540981418,-0.016148679610878736,-0.19009774750856503,1416580132.2615821
47.1159519,8.671073999999999,1039.089,-1.7028507331981424,-0.01621254085473378,-0.19191106238298775,1416580132.4654546
47.1159519,8.671073999999999,1039.089,-1.782664568805436,-0.016666782685408332,-0.1958351769646041,1416580132.8110611
47.1159337,8.6709929,1038.965,-1.8256241868967527,-0.014029461587249381,-0.19253718638371514,1416580133.0119324
47.115925999999995,8.6709667,1038.921,-1.8727027056020256,-0.011695610557989289,-0.1941485364366903,1416580133.2107408
47.115917599999996,8.6709414,1038.895,-1.918589579650208,-0.009443639004968807,-0.19528244209839624,1416580133.4115672
47.115908399999995,8.670917,1038.82,-1.9619925699189402,-0.006986973982558764,-0.19533805533164547,1416580133.6113074
47.1158986,8.670893,1038.825,-2.013019986095446,-0.0045102972830088905,-0.19530332573023307,1416580133.8280597
47.115888,8.6708692,1038.779,-2.0568038389322707,-0.0026382709288199635,-0.19544727847308557,1416580134.02869
47.1158763,8.6708462,1038.741,-2.1051563243901987,-0.00020087698954518451,-0.19653932921307557,1416580134.23044
47.1158638,8.670823799999999,1038.694,-2.1503342894208717,0.0014543876961716773,-0.19604384792458707,1416580134.428082
47.1158508,8.6708021,1038.628,-2.1929054727893207,0.0025750208843025035,-0.19546370121960352,1416580134.627796
47.115837,8.6707813,1038.59,-2.242030800561504,0.001941145225223151,-0.19504961699871146,1416580134.8283346
47.1158224,8.6707617,1038.567,-2.288682933760212,0.0020663791692026034,-0.19614556870695235,1416580135.0278616
47.1158073,8.670743,1038.516,-2.333712795209028,0.0021579008470502536,-0.19799071031640392,1416580135.2275696
47.1157915,8.670725,1038.433,-2.380637922887299,0.002374065183059937,-0.19926283225806232,1416580135.430188
47.115775,8.670708399999999,1038.419,-2.426946843849729,0.0028390517060077336,-0.19836983134544428,1416580135.6278121
47.1157581,8.6706928,1038.287,-2.47170879342554,0.0033131142273510328,-0.19887728487439973,1416580135.8275776
47.115740599999995,8.6706781,1038.284,-2.517571735941007,0.004631206503474372,-0.19903077496034477,1416580136.0281801
47.1157227,8.6706647,1038.225,-2.564370712252665,0.005075112749838295,-0.19946961250020012,1416580136.2279484
47.1157043,8.6706524,1038.179,-2.6100420376598006,0.004931208553434985,-0.20049203799726856,1416580136.4285831
47.115685299999996,8.6706411,1038.16,-2.657252144682908,0.0056542888446577955,-0.2009257984918572,1416580136.6303122
47.1156661,8.6706311,1038.1390000000001,-2.703675525413682,0.005474152659828757,-0.20126092708604543,1416580136.827865
47.1156467,8.6706224,1038.085,-2.745824730929889,0.00437212495398831,-0.2006233694132357,1416580137.0274925
47.1156266,8.6706151,1038.068,-2.7932974063696667,0.005293458429564746,-0.20079649951657633,1416580137.2300556
47.115606299999996,8.6706091,1038.113,-2.8405249136864015,0.005491829466080844,-0.2018712715033524,1416580137.4286993
47.115586199999996,8.6706042,1038.071,-2.887798905648814,0.0049187820952028005,-0.20322034938303868,1416580137.6282237
47.1155657,8.6706009,1038.071,-2.9342961474563345,0.003062872538118322,-0.20382268831309247,1416580137.8298342
47.115545,8.6705988,1038.047,-2.981737696387378,0.0018564806753296192,-0.20218648945465212,1416580138.0274909
47.1155243,8.6705981,1038.115,-3.0290877884517293,0.0002508542938064462,-0.19941847229473006,1416580138.2301958
47.115503399999994,8.6705988,1038.132,-3.0753349389143345,-0.0007992179028304403,-0.1966482795736145,1416580138.4336917
47.1154613,8.6706039,1038.0620000000001,3.1241987182677633,-0.0037282908754763255,-0.19573959669579255,1416580138.7892158
47.1154406,8.6706086,1038.042,3.071730996346831,-0.004679189279016782,-0.19585309049202992,1416580139.0147333
47.11542,8.6706146,1038.034,3.027160620468329,-0.00498264801208137,-0.19606734893669742,1416580139.2153156
47.115399499999995,8.6706218,1038.027,2.9817528602771386,-0.005690569108521393,-0.19644665032024397,1416580139.421978
47.115379499999996,8.6706303,1038.021,2.9347686463858413,-0.005285755592495445,-0.19702709696269316,1416580139.615592
47.1153596,8.6706404,1037.9950000000001,2.890665203344781,-0.005384783532721205,-0.19682900894623115,1416580139.815307
47.1153401,8.6706515,1037.975,2.843428000048874,-0.006173914422632487,-0.19670057997572601,1416580140.0317132
47.115321099999996,8.6706636,1037.999,2.7977694922861747,-0.007649516613448704,-0.19767593341431927,1416580140.2313085
47.1153027,8.6706772,1037.959,2.7522658893032568,-0.008906478522882733,-0.20060237597917777,1416580140.4309323
47.1152847,8.6706922,1037.987,2.708513239912042,-0.009259753323529463,-0.2021533159178492,1416580140.6316867
47.1152667,8.670708099999999,1037.907,2.664197877808742,-0.009299450744275406,-0.2021043741287038,1416580140.8313167
47.1152667,8.670708099999999,1037.907,2.616831476723137,-0.008763431458637339,-0.2007209997548212,1416580141.0350914
47.1152322,8.6707431,1037.938,2.5727476327892753,-0.007294338124142596,-0.2003395735858433,1416580141.2346945
47.1152156,8.6707623,1037.95,2.5279735909960586,-0.005377160516238932,-0.1983915156882394,1416580141.43133
47.1151996,8.6707827,1037.915,2.480858432751386,-0.004689358753043882,-0.19803187638258285,1416580141.631875
47.1151847,8.6708041,1037.891,2.4351733657844443,-0.0038597277646477135,-0.1982160409956362,1416580141.8315532
47.1151704,8.6708263,1037.891,2.388746892113641,-0.003004774560710022,-0.19897464908293772,1416580142.0322168
47.1151568,8.6708493,1037.807,2.3410540902783894,-0.00241572321912642,-0.19950075391810604,1416580142.231693
47.1151439,8.670873,1037.817,2.2939091159057257,-0.002065328860747062,-0.19860649576243805,1416580142.43234
47.1151317,8.6708976,1037.857,2.24575027282265,-0.0016446321387248997,-0.1972532939991287,1416580142.6320822
47.115120499999996,8.6709231,1037.851,2.200847236746581,-0.001568513626135859,-0.19757408012311073,1416580142.8326526
47.1151103,8.6709491,1037.936,2.15670377636864,0.0012839230462811102,-0.19834157937118665,1416580143.0362267
47.115100899999995,8.670975499999999,1037.875,2.1059069530047108,-0.00029348592348910074,-0.2013647081983784,1416580143.2358482
47.1150922,8.671002999999999,1037.844,2.0590377263568933,0.0009410247742516198,-0.20348330227401273,1416580143.448468
47.115083999999996,8.671031,1037.777,2.0134459845002968,0.0024790967035845934,-0.20541589698564655,1416580143.6361516
47.115076699999996,8.6710596,1037.718,1.9670157906988908,0.003474605661620833,-0.20655535505940048,1416580143.835607
47.1150703,8.6710884,1037.637,1.9191897855824491,0.004459420010255899,-0.20611040356803598,1416580144.055495
47.1150646,8.6711177,1037.628,1.8752980554733605,0.005957842161066651,-0.20690459680872758,1416580144.2358258
47.11506,8.671147099999999,1037.57,1.826801072475407,0.006900125162735415,-0.2076383303496644,1416580144.4355206
47.1150564,8.671177,1037.496,1.7781990118464122,0.00808403533349411,-0.20824587373473452,1416580144.6370902
47.115053599999996,8.6712069,1037.394,1.730551964876229,0.009721470841311364,-0.20893929582757792,1416580144.846805
47.1150521,8.6712369,1037.315,1.6807717593638243,0.009481542646895491,-0.2101548884209193,1416580145.0462167
47.1150513,8.6712671,1037.234,1.6339738323699726,0.010348538921223893,-0.21037171327975768,1416580145.248025
47.115051699999995,8.6712974,1037.16,1.586159449037368,0.009929686836935181,-0.20947892102631224,1416580145.435572
47.1150527,8.671327999999999,1037.06,1.5371620688480727,0.008698326222615016,-0.21120325605616047,1416580145.6363392
47.115054699999995,8.6713586,1036.958,1.4873802741516455,0.007367404285283374,-0.21283156195187908,1416580145.8378353
47.1150575,8.6713892,1036.828,1.4384238754784848,0.0053032497415503865,-0.21314789335717127,1416580146.055926
47.115061499999996,8.671419199999999,1036.714,1.3871945598750088,0.003215315920442885,-0.21311040705613443,1416580146.2362003
47.1150665,8.6714488,1036.64,1.3375750368234127,9.298903773680145e-05,-0.21233156054660118,1416580146.4377244
47.1150726,8.6714782,1036.554,1.2889620137051896,-0.003992029034141309,-0.21064396803020316,1416580146.6363432
47.1150793,8.671507199999999,1036.462,1.2385092979786647,-0.00916077056180864,-0.20898494602506776,1416580146.836961
47.1150872,8.6715352,1036.449,1.1867407800268737,-0.015161419467209836,-0.20865249363292157,1416580147.0376003
47.1150959,8.671562699999999,1036.48,1.1387204208164954,-0.020084560706474797,-0.208144086293121,1416580147.2362123
47.1151057,8.6715889,1036.405,1.0896677385559386,-0.021423011471369158,-0.20549633679163734,1416580147.437863
47.1151163,8.6716144,1036.432,1.042406325514026,-0.020963748016270767,-0.20371838337844198,1416580147.637492
47.1151276,8.671639299999999,1036.46,0.9973698032053261,-0.020583599284347054,-0.20154154877334735,1416580147.837091
47.1151395,8.6716632,1036.401,0.9512810312843083,-0.019527383044305235,-0.19901316948314515,1416580148.0368543
47.1151519,8.6716865,1036.47,0.9067956359695114,-0.016072231630609224,-0.19619964069091536,1416580148.2384331
47.1151651,8.671708599999999,1036.452,0.8644629419674046,-0.011017489995181151,-0.1932772690461314,1416580148.4380817
47.1151791,8.6717295,1036.491,0.8227636050097045,-0.006817352881688388,-0.19083766234804242,1416580148.6366081
47.1151933,8.6717496,1036.506,0.7799540016491752,-0.0036811183881715337,-0.18846556649049406,1416580148.8382177
47.115207899999994,8.6717686,1036.469,0.7401808709391863,-0.0017462789801174772,-0.18791563446527101,1416580149.0522926
47.115223199999996,8.671786599999999,1036.459,0.697022608408467,-0.0011762561039938557,-0.1900431502020424,1416580149.2374363
47.1152389,8.6718038,1036.404,0.6572407191711392,0.0005774441592250046,-0.19272383397538626,1416580149.4381225
47.1152549,8.6718199,1036.4180000000001,0.6179249110310862,0.000451848763161955,-0.19357562072831067,1416580149.637578
47.1152716,8.6718346,1036.355,0.5770903352799549,0.002555464287159026,-0.19227643120220628,1416580149.838219
47.115289,8.6718484,1036.275,0.5368744714896124,0.0033243035579741953,-0.191567995249253,1416580150.050949
47.115307,8.6718607,1036.199,0.4967245981744102,0.0010106359830097666,-0.19139384140017374,1416580150.2396097
47.115325299999995,8.6718719,1036.0810000000001,0.4570427549011946,0.002213427591416295,-0.18919614375894764,1416580150.4373207
47.1153438,8.671882,1035.981,0.41518077310760626,0.0021892861340777614,-0.18639981425660154,1416580150.6420598
47.1153617,8.6718912,1035.9080000000001,0.37498048329604183,0.0031308416891278057,-0.18489487485527473,1416580150.8376148
47.1153797,8.6718995,1035.857,0.33231866125615506,0.004023302720221222,-0.18091571054223923,1416580151.0372257
47.1153981,8.6719061,1035.772,0.2906226296168139,0.004511297317768337,-0.1773076189580142,1416580151.2368298
47.115417,8.6719118,1035.771,0.24876989647582234,0.004522170903308753,-0.1703130779770682,1416580151.4394934
47.1154363,8.671916399999999,1035.682,0.20467565336484578,0.005209533715362591,-0.15553556685861475,1416580151.637126
47.1154556,8.671919599999999,1035.6680000000001,0.15933664717315943,0.007158507877065956,-0.12664647092433715,1416580151.8377311
47.115474999999996,8.6719214,1035.64,0.11367188065580146,0.0068840829648111335,-0.10184412844815538,1416580152.0373461
47.115494399999996,8.6719222,1035.665,0.06403461079914308,0.0035617209231399993,-0.08455936966322834,1416580152.2399516
47.115513799999995,8.671922,1035.665,0.018470300258971582,-0.0006737520505646355,-0.07574710061185241,1416580152.4376132
47.115533299999996,8.6719211,1035.738,-0.02520746136875899,-0.005410653825191458,-0.07224020868621914,1416580152.6372285
47.115552699999995,8.6719191,1035.765,-0.06811042467078385,-0.012409905794390275,-0.07059338717559872,1416580152.8368676
47.1155719,8.6719168,1035.763,-0.10700768151243396,-0.019952680490852526,-0.06804971898997582,1416580153.0374718
47.1155908,8.6719139,1035.78,-0.14088117182915502,-0.025391576504733004,-0.06612579736103008,1416580153.2371974
47.115609299999996,8.67191,1035.758,-0.17234404724390814,-0.029616285577940937,-0.06482028070018796,1416580153.4377332
47.115627599999996,8.6719054,1035.836,-0.20122028115335786,-0.03413367645270493,-0.06297029970424028,1416580153.6414404
47.1156459,8.6719004,1035.914,-0.22447952016225564,-0.03793602902472837,-0.06714671528067072,1416580153.837968
47.1156638,8.6718947,1036.016,-0.24487376284948123,-0.041325067582242525,-0.08929237909271918,1416580154.0426161
47.115681599999995,8.6718881,1036.09,-0.25853356055361976,-0.04182434527728973,-0.11698346288998808,1416580154.2372513
47.115699,8.6718811,1036.225,-0.2685363748868506,-0.04551164214397585,-0.14129861545237166,1416580154.4377584
47.1157158,8.671873399999999,1036.257,-0.2765653114270002,-0.04827987871100925,-0.15943837884126338,1416580154.6373565
47.1157323,8.6718652,1036.304,-0.2835098680468283,-0.04671525748550276,-0.1703152826387203,1416580154.8380084
47.1157483,8.671856,1036.2830000000001,-0.29099535900994095,-0.040603091403175195,-0.17569235455759583,1416580155.0425746
47.115764,8.6718457,1036.317,-0.3024033359342095,-0.030789693199366974,-0.17344806067262108,1416580155.2373242
47.1157797,8.6718345,1036.291,-0.31927759452761834,-0.019874850882832806,-0.16934985152966875,1416580155.439959
47.115794799999996,8.6718226,1036.207,-0.3412664972263887,-0.007972754343964272,-0.16554986898473967,1416580155.6375957
47.115809299999995,8.671809999999999,1036.112,-0.36964319024771536,0.002098945731176638,-0.16208661745278144,1416580155.8382585
47.115838499999995,8.6717815,1035.896,-0.4462450845831079,0.021891480455306978,-0.167151054807957,1416580156.2624552
47.1158527,8.6717661,1035.799,-0.4904799911746513,0.028883730886339665,-0.17487849138901032,1416580156.4630945
47.1158809,8.6717326,1035.594,-0.5628329004205368,0.0347906174719117,-0.18663028272159782,1416580156.778362
47.115894399999995,8.6717145,1035.464,-0.612488898225109,0.03683634312722295,-0.19263805228710068,1416580156.975004
47.1159075,8.6716953,1035.299,-0.682313446339509,0.03578064703718109,-0.19905734726964913,1416580157.2384398
47.1159196,8.6716751,1035.193,-0.7356188189683578,0.032981050426242886,-0.20581382398775075,1416580157.4381015
47.1159312,8.671653899999999,1035.009,-0.7933647792245044,0.029051879676716963,-0.21203692792463846,1416580157.6397035
47.115942399999994,8.671631,1034.874,-0.84946202351566,0.02471014422630402,-0.21684655187454557,1416580157.8384895
47.115953399999995,8.6716072,1034.734,-0.9070168486813958,0.019724926402057807,-0.2197985721675069,1416580158.0381155
47.1159635,8.671582899999999,1034.692,-0.9667400951532867,0.013258837700647064,-0.22362711736585053,1416580158.239692
47.1159727,8.6715581,1034.616,-1.0249552191143092,0.0058120800480852,-0.22655340635931082,1416580158.4403443
47.115981,8.6715325,1034.488,-1.0814172026915354,0.001956695456835522,-0.22898875340511726,1416580158.6389878
47.1159882,8.671506299999999,1034.403,-1.140218034238271,-0.0014163783496563553,-0.23129737533832717,1416580158.8395402
47.115994099999995,8.671479399999999,1034.395,-1.1975278667017397,-0.004296310861991559,-0.23310765285393634,1416580159.0392528
47.1159992,8.6714517,1034.357,-1.2530744888303837,-0.007384027769205659,-0.23377396922563118,1416580159.2427378
47.116003299999996,8.671423599999999,1034.346,-1.3090223988939655,-0.010452095765188574,-0.23387378546019502,1416580159.439354
47.116006,8.671395,1034.346,-1.3626962508425262,-0.013337639996168438,-0.23468974951736943,1416580159.6389987
47.1160078,8.671365699999999,1034.378,-1.4162087222158606,-0.015846532826202075,-0.23601548474779815,1416580159.8396926
47.116008699999995,8.671336199999999,1034.432,-1.4695045061893517,-0.017665158627154787,-0.2369645093588884,1416580160.0392253
47.1160083,8.671306699999999,1034.39,-1.5204248806225187,-0.01965483931252021,-0.23789236024055946,1416580160.2428565
47.1160071,8.6712779,1034.476,-1.570719822591855,-0.019071615430155564,-0.23956326115111717,1416580160.4394388
47.1160048,8.671249,1034.428,-1.6230948310728301,-0.01667818481240313,-0.24046426612789001,1416580160.6392531
47.116001499999996,8.6712201,1034.422,-1.674036645119026,-0.01458308162590316,-0.23946735992339857,1416580160.8398783
47.115997199999995,8.6711916,1034.501,-1.7236807704478954,-0.012796993414783353,-0.24125648829913243,1416580161.0394897
47.1159916,8.6711638,1034.442,-1.7746719854686048,-0.012509592210526499,-0.24299049986698112,1416580161.2441008
47.115985099999996,8.671136599999999,1034.371,-1.8272022591867234,-0.012834660152796884,-0.2437542347454118,1416580161.4397402
47.115977699999995,8.6711099,1034.426,-1.8814061861556834,-0.011452482011013565,-0.24327381146119773,1416580161.6392405
47.115969299999996,8.671084,1034.555,-1.9310537011981355,-0.009868700531384444,-0.2428747139991688,1416580161.8388693
47.11596,8.6710583,1034.574,-1.9833304259472726,-0.006783203179759445,-0.24152583050106602,1416580162.0396812
47.115949799999996,8.671033,1034.557,-2.036793736043521,-0.005230703605677789,-0.24353420352801175,1416580162.2432058
47.115938799999995,8.6710087,1034.515,-2.0886920711628822,-0.0034566054950604386,-0.24848599086609868,1416580162.4417446
47.1159138,8.6709633,1034.483,-2.169609459612544,-0.0003552766829413301,-0.2564092232184741,1416580162.7622395
47.1158845,8.6709224,1034.362,-2.2769938492884236,0.0029620283644378187,-0.26349599191910167,1416580163.1646256
47.115868899999995,8.6709034,1034.328,-2.34679401611424,0.004494554221150526,-0.2695192440269184,1416580163.4273353
47.1158526,8.6708856,1034.211,-2.4010391231471795,0.005791588730045261,-0.2764290763806886,1416580163.636958
47.1158353,8.670869099999999,1034.196,-2.4511597359038255,0.006057661868717146,-0.2840712700605551,1416580163.8278384
47.115817299999996,8.6708539,1034.073,-2.503317483121529,0.006089120056259167,-0.29397500047885616,1416580164.0295806
47.1157988,8.670840199999999,1033.983,-2.5555530002620457,0.007249469624796223,-0.3040559901886636,1416580164.2275403
47.1157798,8.670828,1033.905,-2.6128422921646135,0.008960113748077703,-0.3117790971779398,1416580164.445229
47.1157602,8.670817099999999,1033.891,-2.666821644983187,0.010922686926922776,-0.3166905648086559,1416580164.627952
47.1157397,8.6708078,1033.786,-2.722497950596801,0.013877883110284372,-0.31967922551567846,1416580164.8277035
47.1157186,8.6708003,1033.701,-2.781129449854671,0.01651996904477926,-0.31984809144239557,1416580165.0275867
47.1156971,8.6707947,1033.669,-2.8435910504013435,0.01991354662638356,-0.3193572639078417,1416580165.2382004
47.115674999999996,8.6707909,1033.597,-2.9070364264356447,0.0220054455670724,-0.31855045668689075,1416580165.4280703
47.1156533,8.6707893,1033.4950000000001,-2.974995298076076,0.022938251718407576,-0.3173915042963553,1416580165.6278262
47.115631,8.67079,1033.465,-3.043075789820707,0.024259044765360782,-0.3187993034018695,1416580165.8315854
47.1156088,8.6707923,1033.421,-3.110462120165495,0.026366530437947677,-0.3233626733968136,1416580166.0274632
47.1155866,8.6707963,1033.29,3.1003452423147975,0.02604391836185349,-0.3284089918327077,1416580166.2273324
47.1155647,8.670802499999999,1033.141,3.0228451674169,0.02405354678198579,-0.32626262444686643,1416580166.4280815
47.1155429,8.6708109,1033.0430000000001,2.946576209122953,0.01831294038870057,-0.32188320367779744,1416580166.6409597
47.115521,8.670821199999999,1032.922,2.8803272413797028,0.0205881031012094,-0.31914095011490895,1416580166.827712
47.1154995,8.670833199999999,1032.796,2.8080353203164283,0.01786689052783519,-0.3280253831161588,1416580167.0275793
47.1154787,8.6708477,1032.762,2.7371895793696956,0.01143334888295744,-0.32751853512285634,1416580167.228193
47.115458499999995,8.6708642,1032.667,2.666459858888947,-0.0017664213389867456,-0.31906166968114474,1416580167.427859
47.1154389,8.670882599999999,1032.623,2.6029873453449706,0.001052656696025167,-0.3178113705665928,1416580167.6295977
47.1154199,8.6709026,1032.567,2.5397630365144446,-0.001459081722815947,-0.32118279869160177,1416580167.8311057
47.115401899999995,8.6709242,1032.525,2.476954005468469,-0.0049119902361494105,-0.3247786049613818,1416580168.0278208
47.1153848,8.6709473,1032.497,2.413009103083412,-0.008049398576659206,-0.31930550728765456,1416580168.2283607
47.1153689,8.670971999999999,1032.507,2.354588518119316,-0.00953363691552811,-0.3090067868043512,1416580168.4279594
47.1153403,8.671024899999999,1032.507,2.247199189436315,-0.012803805775035038,-0.2970817753216935,1416580168.7683694
47.1153279,8.671052999999999,1032.452,2.1873921856903613,-0.01518053327199298,-0.2945267365194947,1416580168.9781835
47.1153166,8.6710821,1032.386,2.123469524212345,-0.018040781485141988,-0.29359288187790505,1416580169.1817484
47.1153067,8.6711119,1032.343,2.061206369558422,-0.021188453738204993,-0.29268028613076585,1416580169.391592
47.1152982,8.671142399999999,1032.376,1.9891858626292456,-0.025605427551606885,-0.2917564567982863,1416580169.6269758
47.115291,8.6711732,1032.349,1.9310456741794866,-0.027932522789808623,-0.2906590671139895,1416580169.826647
47.1152849,8.671204099999999,1032.391,1.8709125141589098,-0.030256221364182156,-0.2905543433814408,1416580170.0252292
47.1152802,8.6712354,1032.423,1.813891782789583,-0.029044753427972747,-0.2912306460982344,1416580170.2248354
47.1152765,8.6712671,1032.462,1.7561879541261314,-0.026164454553802896,-0.29132992322441764,1416580170.429474
47.1152739,8.6712987,1032.435,1.697345160907671,-0.024277973616478876,-0.2909826354969907,1416580170.6251137
47.1152728,8.6713302,1032.484,1.6403484610559655,-0.0224028375559453,-0.2888210072010664,1416580170.824825
47.1152732,8.6713616,1032.564,1.5804903227150415,-0.019856069693271916,-0.2879471621809096,1416580171.0312426
47.115274899999996,8.671392899999999,1032.586,1.5212917235665684,-0.01591973345054809,-0.28735862024123987,1416580171.231828
47.115277899999995,8.6714241,1032.626,1.4638714680570086,-0.012147472591911734,-0.28700832334866144,1416580171.4294832
47.115282199999996,8.6714547,1032.594,1.4007378094271823,-0.007749140709978786,-0.2855479765921906,1416580171.6401181
47.115287599999995,8.6714849,1032.575,1.3437060665921738,-0.0034302081945365437,-0.28469632526635114,1416580171.8317566
47.115301699999996,8.6715435,1032.582,1.2234895297160386,0.0009970248281969685,-0.280952490051364,1416580172.2309563
47.1153103,8.6715716,1032.545,1.1623529762375355,0.003056855896599986,-0.2807544244130802,1416580172.4295933
47.1153197,8.6715988,1032.48,1.1041900459727494,0.004172071358737428,-0.28013300932048824,1416580172.630241
47.1153304,8.6716251,1032.448,1.041135857661333,0.004861580793204645,-0.2787108043197695,1416580172.8317442
47.115342299999995,8.671650099999999,1032.355,0.9783719673973027,0.003876597385534808,-0.2710968726555996,1416580173.0304358
47.115355199999996,8.6716746,1032.357,0.9169124263291226,0.003006881796679073,-0.23754612976109923,1416580173.2309716
47.115369,8.6716978,1032.272,0.8538085034712541,0.0020905267422752782,-0.19104796246151706,1416580173.430695
47.1153835,8.6717196,1032.303,0.7870696254180222,1.4130406520429517e-06,-0.15578992811877823,1416580173.6343338
47.1153985,8.6717401,1032.286,0.7232616882217109,-0.0061422360949972,-0.13556659194494852,1416580173.8339844
47.1154139,8.6717598,1032.292,0.6612799942223975,-0.013811650263571895,-0.12420304591088237,1416580174.0345974
47.115429899999995,8.671778699999999,1032.388,0.5996356456525856,-0.02464066968479761,-0.11746616161390376,1416580174.2442098
47.115446299999995,8.6717965,1032.486,0.5493762198878328,-0.0293541804862405,-0.11323719306238306,1416580174.4338698
47.115463,8.671812899999999,1032.63,0.4972581540300802,-0.03442644891331903,-0.11098632070191189,1416580174.6484804
47.1154796,8.6718282,1032.727,0.4569976438544098,-0.03878895095669321,-0.10981034503686118,1416580174.8341286
47.1154965,8.6718425,1032.82,0.4187013652506738,-0.042163837965187856,-0.10830799976912693,1416580175.0347311
47.1155135,8.671855899999999,1032.906,0.3832772788122517,-0.04713265141528433,-0.1047667009500091,1416580175.2434452
47.1155306,8.671867899999999,1032.935,0.35387578018071375,-0.05094358174230762,-0.10022125430482665,1416580175.4459713
47.115547899999996,8.6718789,1033.0520000000001,0.32979896200154046,-0.05292882159459933,-0.09496422429179889,1416580175.634587
47.1155652,8.6718893,1033.215,0.3073334363004173,-0.05204230061329418,-0.09283183232348886,1416580175.8432322
47.1155823,8.6718988,1033.387,0.2883876448993205,-0.050046390559375764,-0.09473674364752396,1416580176.034967
47.1155992,8.671907299999999,1033.51,0.2704363245639731,-0.048108981958003394,-0.09688271209113597,1416580176.2455761
47.1156161,8.6719146,1033.646,0.25510543930913593,-0.04594979646136155,-0.09702085829482882,1416580176.4342973
47.1156329,8.6719214,1033.8020000000001,0.23817612093452614,-0.04246304475506024,-0.09132730830873714,1416580176.64972
47.1156497,8.6719271,1033.851,0.22274366319956898,-0.038106612594602574,-0.08573865721857747,1416580176.8435073
47.115666499999996,8.6719321,1033.915,0.20897679548635004,-0.03130067351283605,-0.08835031793054827,1416580177.0349932
47.1156833,8.6719361,1033.955,0.19542663784665693,-0.021595512237266856,-0.0934977344934555,1416580177.2466085
47.1157001,8.671939799999999,1034.015,0.18392513910587976,-0.013917552989544335,-0.09285284110433298,1416580177.4342732
47.115717,8.6719429,1034.05,0.1711795100212454,-0.00735901462998223,-0.0976455352272696,1416580177.648841
47.1157336,8.6719452,1033.984,0.1582624510567611,-0.010101132013005332,-0.12377291938230654,1416580177.8455546
47.115750299999995,8.6719467,1033.883,0.14660387844601339,-0.010294728740698922,-0.15876921362064275,1416580178.0351105
47.115766799999996,8.6719473,1033.848,0.13586366763104527,-0.010747864112054195,-0.1893777810598107,1416580178.2347045
47.115783699999994,8.671947,1033.713,0.1241357934770384,-0.008446449248234345,-0.2125055210860773,1416580178.4354973
47.1158007,8.6719461,1033.615,0.11021663390921176,-0.005558899208456536,-0.22620061980842013,1416580178.6349776
47.1158177,8.6719443,1033.45,0.09017044495963644,-0.0008636195159923421,-0.2324770855909899,1416580178.8346093
47.115835,8.6719412,1033.3020000000001,0.06450068522507543,0.00793060408253865,-0.23687241164887102,1416580179.0352561
47.1158522,8.6719366,1033.152,0.032522068904730944,0.017403151308325926,-0.2397615589355123,1416580179.2368305
47.115869499999995,8.6719311,1032.988,-0.006852660660296105,0.02728939270274422,-0.23919804371107165,1416580179.4345043
47.115887,8.6719244,1032.769,-0.05513480032713687,0.03594444745288894,-0.23707552967862097,1416580179.650101
47.1159043,8.6719163,1032.564,-0.10436943351479112,0.04364968639176969,-0.23636001454244937,1416580179.8347383
47.1159217,8.6719069,1032.353,-0.16539838516191266,0.05078407841126209,-0.24111574315092657,1416580180.034389
47.1159391,8.6718963,1032.137,-0.2323262611319216,0.05398018931629012,-0.24846871214517827,1416580180.2388284
47.115956399999995,8.6718842,1031.941,-0.2981138110156923,0.055285425021424306,-0.25437347051020115,1416580180.434589
47.1159907,8.6718555,1031.6,-0.4481946867301255,0.051463326399142195,-0.26192702234657694,1416580180.8355255
47.116007499999995,8.6718389,1031.461,-0.5210659871235211,0.045526111508836564,-0.26518322602331995,1416580181.0335104
47.116023899999995,8.671821099999999,1031.309,-0.6008921655141041,0.036574220160789706,-0.2699853761874993,1416580181.2372296
47.116039699999995,8.6718017,1031.095,-0.6761140493832102,0.026614738655863057,-0.2752280365213958,1416580181.4337573
47.1160548,8.6717807,1030.98,-0.74845164327044,0.017639407370784177,-0.28230991282245127,1416580181.6363828
47.1160687,8.6717583,1030.925,-0.8253945413448726,0.005802902918533581,-0.28917919296488853,1416580181.8480136
47.1160814,8.6717348,1030.824,-0.8908158440750418,-0.002695866142436998,-0.2926511681961478,1416580182.0336459
47.1160931,8.6717102,1030.8120000000001,-0.9552781650021681,-0.009268416794761647,-0.2951663790396302,1416580182.234245
47.116103599999995,8.6716844,1030.743,-1.019473160952243,-0.014954746293412091,-0.2977453565826022,1416580182.4338644
47.116113,8.6716575,1030.834,-1.0843528929202926,-0.021831954796054154,-0.2995658845742834,1416580182.6384428
47.116121199999995,8.6716298,1030.8890000000001,-1.1438233293740467,-0.027494619512460128,-0.30072745723746297,1416580182.8350964
47.1161277,8.671601599999999,1030.932,-1.2030005879320969,-0.03337607324917413,-0.3012337697008984,1416580183.0337162
47.1161329,8.6715731,1030.974,-1.2610629109281921,-0.03357174849136113,-0.30167992050034564,1416580183.2334616
47.1161367,8.6715441,1031.044,-1.3170383163703667,-0.03168171511206941,-0.30261549897300616,1416580183.4342268
47.1161391,8.6715147,1031.066,-1.372916575309868,-0.030692009692305344,-0.3032428031781727,1416580183.6337523
47.116140099999996,8.671485299999999,1031.112,-1.4295567571505154,-0.028041159272030436,-0.3024281093266453,1416580183.835358
47.1161398,8.671456,1031.105,-1.4857357159398699,-0.025539910462221815,-0.30180436701651414,1416580184.0369854
47.1161385,8.671426799999999,1031.089,-1.5401140169940166,-0.022880936092305237,-0.2996446933157486,1416580184.2336419
47.116135799999995,8.6713984,1031.044,-1.599575173805242,-0.020883294216318626,-0.2969198406903542,1416580184.4342227
47.1161318,8.6713702,1030.972,-1.6574639637688258,-0.016543533335308336,-0.2952037790350897,1416580184.6359384
47.1161266,8.6713424,1030.988,-1.7155664774058836,-0.015340207850817578,-0.2912676731816809,1416580184.8335116
47.1161203,8.6713151,1030.969,-1.7764219663456096,-0.011404390542022469,-0.28758857386477626,1416580185.037102
47.116112799999996,8.671288299999999,1030.911,-1.8342990456227948,-0.008562853203776033,-0.28734140849688117,1416580185.2337625
47.1161039,8.671261699999999,1030.813,-1.8954998397783642,-0.005238356220180984,-0.2897650918655808,1416580185.4383466
47.116093799999994,8.6712358,1030.709,-2.01586033347368,-0.0012401990678123642,-0.2920145392727003,1416580185.833709
47.1160709,8.6711871,1030.531,-2.07626684669701,6.0967174083437214e-05,-0.29232812365736005,1416580186.0362663
47.1160576,8.6711639,1030.478,-2.139137525553054,0.0026749841364237525,-0.2923782268945723,1416580186.2378225
47.1160436,8.6711417,1030.363,-2.200231086318296,0.004491705884920094,-0.2890046335682192,1416580186.437463
47.116012999999995,8.671100899999999,1030.253,-2.3003971071197804,0.003920297320508359,-0.27981513950808057,1416580186.7818673
47.1159961,8.6710821,1030.267,-2.376917934005374,0.007315974661806113,-0.2743334008102205,1416580187.0355203
47.1159782,8.671064399999999,1030.26,-2.4362292656813307,0.01028681173717616,-0.27044194637227265,1416580187.2389543
47.115959499999995,8.671048299999999,1030.287,-2.4970614919718903,0.005081344369871621,-0.27230115581567244,1416580187.4376004
47.1159213,8.6710205,1030.207,-2.6099207433217777,-0.0019452099357593067,-0.2779030609038371,1416580187.8358374
47.115901199999996,8.671009,1030.208,-2.6683853207614363,-0.007212489279916134,-0.28059045169604363,1416580188.0437562
47.1158809,8.6709996,1030.176,-2.7237917030971213,-0.011593317878221487,-0.286946008516602,1416580188.2372608
47.115859799999996,8.670992,1030.234,-2.7792323493661755,-0.016390478494493044,-0.29271752615981056,1416580188.436876
47.1158171,8.6709816,1030.151,-2.891698388792415,-0.023302148256341138,-0.28802431887126057,1416580188.836105
47.1157956,8.670979299999999,1030.133,-2.9479868738641843,-0.01949236074738092,-0.28612409418557777,1416580189.0427377
47.1157737,8.6709787,1030.153,-3.003210873332248,-0.0171524916449326,-0.28693665964178666,1416580189.2373827
47.115752,8.670979599999999,1030.1680000000001,-3.061086183119829,-0.014216383332179339,-0.2882136261095229,1416580189.4369774
47.1157304,8.6709824,1030.251,-3.1172248832920078,-0.009838189585024137,-0.28956888332653136,1416580189.6366332
47.1157091,8.6709868,1030.23,3.1058708356998364,-0.0031746203852620614,-0.2920391462223989,1416580189.8372416
47.115687699999995,8.6709932,1030.224,3.0453545081292144,0.002273042020604299,-0.29217877648057183,1416580190.0427654
47.115666499999996,8.671001,1030.204,2.98627709302505,0.003201392381948276,-0.289339849541629,1416580190.2383702
47.1156455,8.6710104,1030.123,2.9220000835070685,0.002190071299116081,-0.2869113104854349,1416580190.4359648
47.1156246,8.6710218,1030.084,2.861676457036449,0.005352604263499483,-0.2859801364885339,1416580190.6387317
47.1156043,8.6710351,1030.099,2.798206119466145,0.005911533762417598,-0.28968018859740274,1416580190.8392506
47.1155847,8.67105,1030.011,2.7328425432826005,0.005548055663677998,-0.2936667174914026,1416580191.0408678
47.1155653,8.6710668,1030.007,2.6709097292345985,0.00503687030654465,-0.2947352536759929,1416580191.2374644
47.115546699999996,8.6710853,1029.974,2.608661733285479,0.003196575688650727,-0.29467119409353526,1416580191.4402623
47.1155292,8.6711057,1029.91,2.5457879285227016,0.005830428023654077,-0.29725584347094064,1416580191.6377509
47.1155123,8.671127199999999,1029.8600000000001,2.4823950909076804,-0.0008569062660732651,-0.29351772861944975,1416580191.836364
47.115496199999995,8.6711499,1029.79,2.41797015373145,-0.0023446754953511117,-0.291273556012104,1416580192.0430226
47.1154811,8.6711738,1029.734,2.358212159066274,-0.003231193134583421,-0.2897862119971342,1416580192.2374535
47.115466999999995,8.671199099999999,1029.672,2.2971989537063093,-0.004502278656438818,-0.2894837446167359,1416580192.4396372
47.115441999999994,8.6712525,1029.584,2.1937270601612355,-0.007748123039683197,-0.2892038253893396,1416580192.7814968
47.115431199999996,8.6712805,1029.516,2.132986971177154,-0.010755312231952363,-0.2879109159401727,1416580192.9842236
47.1154215,8.671309299999999,1029.415,2.0628557154002536,-0.01218828739467459,-0.28627336518799135,1416580193.2162375
47.115413,8.6713388,1029.382,2.003954942274797,-0.013374423801266966,-0.2852860779870729,1416580193.4174747
47.1154058,8.6713689,1029.365,1.9457321957347975,-0.015296333888125568,-0.28639557645595093,1416580193.620216
47.1153998,8.6713997,1029.346,1.8870962896658094,-0.01686214473765646,-0.2875433023060682,1416580193.8188303
47.115395,8.6714305,1029.319,1.8276142030829952,-0.018193684144625077,-0.28788863335837506,1416580194.0185833
47.1153913,8.6714618,1029.338,1.7644234501940945,-0.018427288740217485,-0.28802156764895603,1416580194.2362688
47.1153889,8.6714934,1029.366,1.7071141669784704,-0.018735648101657842,-0.2882598370391445,1416580194.4358673
47.1153878,8.671524699999999,1029.357,1.6471694355552498,-0.02029742893576625,-0.28850917573158685,1416580194.6383574
47.1153881,8.6715559,1029.3220000000001,1.5902526284944059,-0.020046328418425352,-0.28951040509727494,1416580194.8350754
47.11539,8.6715866,1029.226,1.5321734666162694,-0.019428154188154467,-0.2899627711980202,1416580195.0397036
47.115392899999996,8.6716176,1029.207,1.470978433157202,-0.018657758131234603,-0.2893033973122157,1416580195.244214
47.1153968,8.6716482,1029.135,1.414747975205368,-0.018247352029818087,-0.28894457903650056,1416580195.4358337
47.115401899999995,8.6716783,1029.112,1.355084173427971,-0.016848526220350823,-0.28927033918356154,1416580195.6394596
47.1154082,8.671707399999999,1029.048,1.292419931012342,-0.015225494246973392,-0.2887059398657227,1416580195.836203
47.1154158,8.6717358,1028.959,1.2318594280622588,-0.014074175980242742,-0.2854510871549022,1416580196.0388315
47.1154246,8.6717632,1028.865,1.1701277309903524,-0.014112259841996266,-0.2839332152087403,1416580196.247594
47.1154343,8.6717899,1028.815,1.1064612244514742,-0.015261503506121654,-0.2847749614870156,1416580196.4393559
47.1154449,8.6718159,1028.816,1.04839858335731,-0.015123193551345171,-0.2861778186961831,1416580196.6362307
47.115456699999996,8.6718406,1028.693,0.9854804042210438,-0.013151549368311644,-0.287277510070016,1416580196.8380055
47.115469399999995,8.6718643,1028.628,0.9224613810326089,-0.012350756381923844,-0.28917832779541625,1416580197.0377128
47.1154827,8.671886899999999,1028.588,0.8640109701674928,-0.011806911482387328,-0.2902441686289037,1416580197.2426143
47.115497,8.6719077,1028.521,0.8003018221101641,-0.011103245686601815,-0.29249571666299284,1416580197.4383485
47.115511999999995,8.6719271,1028.47,0.7401650474323198,-0.008821576278644105,-0.29386474936985596,1416580197.6381037
47.1155277,8.6719452,1028.442,0.6791800527261393,-0.004195606657002138,-0.293244128144293,1416580197.837849
47.115544199999995,8.671961699999999,1028.483,0.6206147487093382,5.809093675979149e-05,-0.29229389744660267,1416580198.0421069
47.1155615,8.671977,1028.4850000000001,0.5578616133577975,0.004845665126294252,-0.28911970288924044,1416580198.2413483
47.115579499999996,8.6719908,1028.517,0.49620469598314454,0.006454052644115693,-0.2852998882720157,1416580198.438219
47.115616499999994,8.6720132,1028.324,0.38731975239511984,0.009122468338694123,-0.27978368422956656,1416580198.7868464
47.1156357,8.672021899999999,1028.378,0.32391240493275386,0.008991778215509783,-0.2770531724706081,1416580198.9865868
47.115655,8.672029,1028.272,0.26520531623986765,0.00850387709689815,-0.2701170655068977,1416580199.191479
47.115655,8.672029,1028.272,0.18900046439166318,0.007450990548102832,-0.2571328586882209,1416580199.4212666
47.1156945,8.6720378,1028.22,0.13098507320078565,0.005667474098262071,-0.24965162648664968,1416580199.622081
47.1157146,8.6720397,1028.221,0.06800026953549639,0.003736309091515899,-0.244815586736397,1416580199.8189719
47.1157348,8.672039999999999,1028.1870000000001,0.011838252222076002,0.0002845195063307937,-0.24452978291974722,1416580200.0237222
47.115755,8.6720388,1028.131,-0.04517245243004096,-0.0037045349028315133,-0.24573593897583862,1416580200.221645
47.1157748,8.6720358,1028.101,-0.10565015694755009,-0.011042954494874246,-0.24749427250262007,1416580200.4203534
47.1157944,8.6720312,1028.176,-0.1613618539734506,-0.016305349273146197,-0.24696077913024703,1416580200.6221066
47.115813599999996,8.6720252,1028.291,-0.21468507647636564,-0.022292893829958027,-0.24645706412938984,1416580200.8197474
47.115832399999995,8.6720176,1028.3790000000001,-0.26627496585351246,-0.025843367325014244,-0.2460014679747058,1416580201.0212526
47.1158508,8.6720081,1028.4270000000001,-0.31727119636958934,-0.025969729263127128,-0.2452246378094724,1416580201.2219617
47.1158686,8.671997,1028.541,-0.3686382233675574,-0.02601912079623636,-0.24236337636604846,1416580201.4315045
47.1158858,8.671984799999999,1028.582,-0.41508624188298865,-0.02577114891551635,-0.23861208453769184,1416580201.634236
47.1159025,8.6719713,1028.695,-0.4622633244815605,-0.023892165637167784,-0.23432814393982077,1416580201.8297596
47.115918699999995,8.6719565,1028.778,-0.5092717201041345,-0.021082605241828256,-0.22907147661670094,1416580202.0314116
47.1159341,8.6719404,1028.799,-0.5548802942469433,-0.019350456639409375,-0.22172918338042866,1416580202.2309752
47.1159488,8.671923099999999,1028.8020000000001,-0.6011680522482253,-0.01887369759177404,-0.2122890496912888,1416580202.4306273
47.115963,8.6719048,1028.819,-0.6419322045748073,-0.006651232633625881,-0.20393514930023485,1416580202.6322694
47.115976499999995,8.671885699999999,1028.827,-0.683532697963072,0.0018491831426521443,-0.20157595516092133,1416580202.835046
47.115989299999995,8.671865799999999,1028.815,-0.7290975161114527,-0.004165461811139304,-0.2022031156512917,1416580203.0305018
47.1160017,8.6718447,1028.795,-0.7732395745096162,-0.011033395287364245,-0.20412612273800634,1416580203.234096
47.1160134,8.6718229,1028.781,-0.8161687846324591,-0.017543792864197494,-0.2086657493263565,1416580203.4327593
47.1160244,8.6718003,1028.804,-0.8613867272703846,-0.019836918611985777,-0.21587295225661948,1416580203.6324387
47.1160347,8.6717769,1028.817,-0.9043899276124095,-0.018667380025591873,-0.22208278530440856,1416580203.8328574
47.116044099999996,8.671752399999999,1028.861,-0.9511838367831107,-0.016903364028352463,-0.22522551921399322,1416580204.0324888
47.116052499999995,8.6717274,1028.892,-0.9952377368173291,-0.01539245075876794,-0.22822272679428127,1416580204.2312596
47.116052499999995,8.6717274,1028.892,-1.0462604276409038,-0.012458197908245872,-0.2333521279571173,1416580204.4508107
47.1160722,8.6716496,1028.941,-1.1389663188567434,-0.010308549021606384,-0.2413331744848949,1416580204.8080003
47.116076899999996,8.6716226,1028.82,-1.1904730520113482,-0.005162308535200388,-0.24708406697924953,1416580205.0066178
47.1160807,8.671595,1028.821,-1.2465635242364825,-0.0029409500865487104,-0.2509854911101218,1416580205.2102213
47.1160834,8.671567099999999,1028.748,-1.3039736148912446,-0.0022012165724230037,-0.2495841343278444,1416580205.4060092
47.1160849,8.6715391,1028.616,-1.373274188503746,-0.001374307526135432,-0.24497290218977047,1416580205.6455922
47.116085399999996,8.6715109,1028.483,-1.4298731434304544,-0.0013100000115890964,-0.241959463495011,1416580205.8442118
47.116085,8.6714828,1028.362,-1.4884189155893848,-0.0018485107904198106,-0.2418729278827781,1416580206.0423272
47.1160834,8.6714545,1028.309,-1.5453651540265567,0.0006141424777366122,-0.24319405825977966,1416580206.245591
47.116080499999995,8.6714264,1028.227,-1.599547226228566,-0.0003709614929210403,-0.2461341879912385,1416580206.4422703
47.116076799999995,8.6713983,1028.123,-1.6583201944714978,-0.0019529073127750873,-0.24867246273268237,1416580206.6458955
47.1160722,8.6713708,1028.122,-1.7138026510543056,-0.0034784279303816668,-0.2503817496421541,1416580206.8455942
47.1160667,8.6713434,1028.05,-1.7697074731811715,-0.006070964992613392,-0.2507550747238027,1416580207.0442605
47.1160597,8.671316599999999,1028.023,-1.8219521725827839,-0.006830221829155381,-0.25312326605288504,1416580207.2448592
47.1160517,8.6712899,1027.938,-1.8746760239964684,-0.009447961968483742,-0.2545237402261751,1416580207.443515
47.1160323,8.6712385,1027.8220000000001,-1.9860034569820444,-0.01576638230960503,-0.25805940180539644,1416580207.8446188
47.1160211,8.6712139,1027.747,-2.040474203002251,-0.017116165492274682,-0.25844352881684124,1416580208.0473301
47.116009,8.6711907,1027.664,-2.092828973454032,-0.017717147112836784,-0.2568379844364623,1416580208.2448573
47.1159961,8.6711688,1027.636,-2.1473229126564797,-0.017149025550057484,-0.25565460673480783,1416580208.4435902
47.1159824,8.6711475,1027.595,-2.2008769249317304,-0.01547052103299884,-0.25420434103211914,1416580208.6492548
47.1159677,8.671127199999999,1027.517,-2.2545355974461936,-0.013967452486362886,-0.25398943044956207,1416580208.8507667
47.1159524,8.671108,1027.446,-2.3112375198715323,-0.013662987650780112,-0.25427920238652574,1416580209.047257
47.1159361,8.671089799999999,1027.385,-2.3617103308497818,-0.011980939693705617,-0.2543493535180932,1416580209.2439654
47.1159192,8.6710729,1027.2830000000001,-2.415552247010142,-0.009332588293840427,-0.2539883211025465,1416580209.4466026
47.1159192,8.6710729,1027.2830000000001,-2.474623691106323,-0.008777623608636098,-0.2526077345805299,1416580209.6502619
47.1158836,8.671043,1027.194,-2.5272982073342716,-0.00902270089576973,-0.254110793356812,1416580209.8458722
47.115865,8.671030199999999,1027.204,-2.580819392666032,-0.007918060521605153,-0.25542872719590004,1416580210.0460093
47.1158459,8.6710189,1027.188,-2.639518042026,-0.00902366312341396,-0.2551126140733718,1416580210.245087
47.115826299999995,8.6710092,1027.175,-2.6921726949106226,-0.008701045271154673,-0.2524185683607792,1416580210.4477277
47.115806199999994,8.671001,1027.2450000000001,-2.743835443831442,-0.0053896515204938655,-0.2519826463499732,1416580210.6483455
47.1157858,8.6709947,1027.194,-2.8007937185171747,-0.0037911692584855494,-0.2524387482386694,1416580210.8441114
47.1157654,8.6709897,1027.088,-2.857507532654476,-0.0037781947844470753,-0.2522822228521611,1416580211.0457814
47.1157446,8.6709863,1026.993,-2.9123510916503927,-0.003143687156164976,-0.2521938959513204,1416580211.2443476
47.115723599999995,8.6709844,1026.897,-2.968176488847392,-0.0004124063782295906,-0.2533233311194563,1416580211.444983
47.115723599999995,8.6709844,1026.897,-3.0221005319307275,0.0005406285094617935,-0.25057701328449733,1416580211.65062
47.1156818,8.6709859,1026.82,-3.0783453600260358,-0.0005925139923137479,-0.2501121834872303,1416580211.845239
47.115660999999996,8.6709886,1026.707,-3.1374538908581315,-0.003004088177977149,-0.2493840707248912,1416580212.0479083
47.1156401,8.6709931,1026.692,3.091701893751285,-0.004201653760752988,-0.24884119331346088,1416580212.2464626
47.1156192,8.6709991,1026.664,3.0361379213173003,-0.005239181490550804,-0.24808096976019697,1416580212.445125
47.115598399999996,8.671007099999999,1026.6770000000001,2.9774429684618453,-0.0068554417705186665,-0.24746815512967443,1416580212.6537359
47.1155778,8.6710167,1026.651,2.924536994203156,-0.00803961576073231,-0.24824510440479367,1416580212.8464756
47.1155575,8.6710275,1026.626,2.8706555018465814,-0.009091949473689409,-0.24981854696575212,1416580213.045202
47.1155377,8.671039799999999,1026.604,2.814761945256082,-0.009508928397081506,-0.25168996350691597,1416580213.245846
47.1155184,8.671054,1026.609,2.7611093136326077,-0.010035178009695889,-0.2532140226478233,1416580213.4465032
47.1154997,8.6710694,1026.558,2.707768293811877,-0.01210216064655456,-0.25448360731027414,1416580213.6461263
47.115481599999995,8.671085999999999,1026.522,2.6503004377153103,-0.013181722432329845,-0.25582322215533093,1416580213.8467371
47.1154641,8.671104099999999,1026.426,2.594056472713385,-0.013281942168047456,-0.2562886929831485,1416580214.0478961
47.1154471,8.6711236,1026.365,2.5404949213777774,-0.011941255229463765,-0.259897077535893,1416580214.2469685
47.1154309,8.6711445,1026.261,2.4844601517646683,-0.010315358124243668,-0.2626890222306826,1416580214.4476464
47.1154309,8.6711445,1026.261,2.430873512080735,-0.010071225351885538,-0.2598982787564951,1416580214.6522489
47.115401,8.6711894,1025.955,2.3738962606334963,-0.009758755006769038,-0.2583141258815825,1416580214.8468914
47.115387299999995,8.6712134,1025.832,2.314988850975141,-0.013421372881812665,-0.25792224589419677,1416580215.0515153
47.1153748,8.671238299999999,1025.727,2.2623019906272495,-0.01170407644070881,-0.25960867631348716,1416580215.2501113
47.115363099999996,8.6712644,1025.643,2.204103454589721,-0.00979253897180854,-0.2611417999278057,1416580215.4488356
47.1153522,8.6712911,1025.557,2.146104527178828,-0.007220874819808376,-0.2636963530748578,1416580215.6493907
47.115342299999995,8.6713187,1025.404,2.0902268795631294,-0.0030005871942775375,-0.26902801913469315,1416580215.848869
47.1153334,8.671346999999999,1025.3120000000001,2.031881274846555,0.000236894214159733,-0.2743785001453823,1416580216.051693
47.1153255,8.671376,1025.212,1.9684416205767226,-0.0002018247068980017,-0.2780448801938579,1416580216.2492177
47.115318599999995,8.6714056,1025.096,1.9036499205823048,-0.006283355010218372,-0.27987085578659926,1416580216.4548306
47.115308899999995,8.6714661,1024.814,1.7810382317831965,-0.013112917379509925,-0.27867037149278223,1416580216.8430033
47.1153061,8.671496699999999,1024.6680000000001,1.7204683150709867,-0.014727898939224104,-0.27583134262730763,1416580217.045356
47.1153044,8.6715275,1024.6,1.6567239310064876,-0.017750725614292584,-0.26848030197390216,1416580217.2562253
47.1153038,8.6715582,1024.493,1.5990051722296885,-0.02056031006979575,-0.25867414704905883,1416580217.444877
47.1153045,8.6715888,1024.468,1.5400596515547833,-0.023687949475174275,-0.24793259051595612,1416580217.647532
47.115306399999994,8.6716193,1024.433,1.4824412361168071,-0.027581404328794745,-0.2257481148507389,1416580217.8542325
47.115309499999995,8.6716494,1024.414,1.4296698860515147,-0.0256009740412817,-0.17894033632637765,1416580218.044044
47.1153136,8.6716787,1024.411,1.3729233377506702,-0.02533976045872066,-0.13901920256930092,1416580218.2426023
47.1153184,8.6717072,1024.397,1.316332776273508,-0.02564246205205012,-0.11295309625890321,1416580218.4442663
47.1153237,8.6717354,1024.411,1.2602521670679618,-0.02718780887237715,-0.09540370404396661,1416580218.653762
47.1153298,8.6717633,1024.425,1.2089601182261045,-0.02811247439224096,-0.08672807160662431,1416580218.8525088
47.1153365,8.6717908,1024.423,1.1625340089784766,-0.02530963252195706,-0.08014129021575772,1416580219.0560012
47.1153437,8.6718178,1024.44,1.1235020669598526,-0.02212344598728011,-0.07498321985789012,1416580219.2426093
47.115351399999994,8.6718441,1024.529,1.087906402577723,-0.01916336635974769,-0.07197215373779886,1416580219.4463265
47.1153596,8.671869899999999,1024.602,1.0568788995852822,-0.01899300237338597,-0.06963681268543764,1416580219.6499538
47.1153683,8.6718952,1024.643,1.0288616347875001,-0.01904162382771646,-0.06704637930569672,1416580219.8525405
47.1153773,8.67192,1024.6970000000001,1.0085360890923334,-0.01701909056294615,-0.06264269172360948,1416580220.0431557
47.1153866,8.6719442,1024.713,0.9901289144205841,-0.0160418477182096,-0.055912727959038844,1416580220.2437696
47.1153963,8.671968,1024.7350000000001,0.9741745686261878,-0.01752878925032464,-0.049529670213371665,1416580220.4553874
47.1154065,8.671991,1024.6870000000001,0.9620197060275303,-0.022999267839094006,-0.045125410208083444,1416580220.6520422
47.1154169,8.672013399999999,1024.742,0.9521663983053849,-0.031503562242562344,-0.04314498664058361,1416580220.8446388
47.115427499999996,8.6720355,1024.837,0.9433770541512442,-0.038426553597075364,-0.04107019679269204,1416580221.0542886
47.1154383,8.6720574,1024.894,0.9372429200026325,-0.043276596621867114,-0.039635609630417935,1416580221.2527483
47.115449399999996,8.6720787,1024.976,0.9310928964093774,-0.050115605448353584,-0.03801404068431433,1416580221.4434042
47.1154606,8.6720995,1025.0040000000001,0.925751550640345,-0.049147526544995435,-0.037698398837008464,1416580221.6540082
47.115471799999995,8.672119799999999,1025.061,0.9202396846861072,-0.0479057779088059,-0.03717014605364626,1416580221.8466177
47.115483399999995,8.6721395,1025.098,0.9137616343107158,-0.0427460636028858,-0.0387982969985117,1416580222.0598233
47.1154953,8.6721588,1025.266,0.906107416374139,-0.038149039321771605,-0.04157092399808933,1416580222.2459917
47.1155073,8.672177699999999,1025.265,0.896720607081095,-0.03240704782758308,-0.0448076545972726,1416580222.4436517
47.1155195,8.672196399999999,1025.313,0.8844450414523867,-0.021755753870012606,-0.04852956866902381,1416580222.6534588
47.1155316,8.672214799999999,1025.378,0.8723786077513405,-0.012201681566414102,-0.05118499378761602,1416580222.8440075
47.115544,8.6722328,1025.35,0.856995983418497,-0.0006033112751575587,-0.05196305769288171,1416580223.0546458
47.1155565,8.6722508,1025.339,0.8412619876063959,0.004775256326020605,-0.049170628982126624,1416580223.2452214
